City Name,Longitude,Latitude,Max Temperature,Humidity,Cloud Coverage,Wind Speed,City Country,Date Time
Hobart,147.33,-42.88,53.6,93,90,2.21,AU,1597504502
Ushuaia,-68.3,-54.8,35.6,80,75,16.11,AR,1597504431
Jamestown,-79.24,42.1,79.0,73,1,8.05,US,1597504485
Taltal,-70.48,-25.4,62.11,49,0,5.99,CL,1597504517
Banda Aceh,95.32,5.56,80.89,80,29,5.19,ID,1597504715
Port Alfred,26.89,-33.59,56.26,74,97,30.06,ZA,1597504716
Kapaa,-159.32,22.08,75.2,100,75,5.82,US,1597504499
Kaitangata,169.85,-46.28,44.01,69,96,4.0,NZ,1597504498
Albany,-73.97,42.6,81.0,54,0,4.88,US,1597504481
Gigmoto,124.39,13.78,79.95,81,91,3.31,PH,1597504717
Lebu,-73.65,-37.62,47.34,69,9,10.74,CL,1597504520
Dikson,80.55,73.51,43.36,91,34,6.42,RU,1597504496
Christchurch,172.63,-43.53,41.0,86,8,4.7,NZ,1597504717
Rikitea,-134.97,-23.12,70.61,77,4,13.6,PF,1597504484
Rāmhormoz,49.6,31.28,113.0,9,0,24.16,IR,1597504603
Qaanaaq,-69.36,77.48,40.41,66,26,3.04,GL,1597504322
Hilo,-155.09,19.73,73.4,88,75,4.7,US,1597504390
Atuona,-139.03,-9.8,77.38,78,36,19.8,PF,1597504507
Broadstairs,1.44,51.36,75.99,96,9,4.65,GB,1597504589
Port Elizabeth,25.57,-33.92,53.6,81,90,26.4,ZA,1597504550
Puerto Ayora,-90.35,-0.74,71.6,78,75,16.11,EC,1597504491
Mataura,168.86,-46.19,43.0,93,99,1.07,NZ,1597504719
Aksu,80.26,41.12,80.87,23,71,4.81,CN,1597504568
Wanning,110.4,18.8,82.27,81,89,7.25,CN,1597504719
Lompoc,-120.46,34.64,64.4,77,1,6.53,US,1597504491
Sistranda,8.83,63.73,59.0,93,90,19.46,NO,1597504613
Gävle,17.14,60.67,87.01,29,29,4.0,SE,1597504720
Saint Paul Harbor,-152.41,57.79,62.6,51,1,16.11,US,1597504246
Nacala,40.67,-14.54,74.21,69,47,10.87,MZ,1597504720
Bragança,-46.77,-1.05,90.0,52,72,7.56,BR,1597504721
Zhigansk,123.37,66.77,44.31,73,100,17.07,RU,1597504721
Hithadhoo,73.08,-0.6,84.02,69,81,5.06,MV,1597504362
Hofn,-15.21,64.25,59.52,76,16,9.22,IS,1597504721
Castro,-50.01,-24.79,62.6,89,100,5.37,BR,1597504518
Pacific Grove,-121.92,36.62,70.0,79,7,4.09,US,1597504234
Vaini,-175.2,-21.2,68.0,77,20,8.05,TO,1597504315
Vrangel',133.08,42.73,69.37,85,87,0.43,RU,1597504722
Cape Town,18.42,-33.93,55.0,62,75,8.05,ZA,1597504484
Constitución,-72.42,-35.33,52.05,61,0,11.01,CL,1597504532
Bandarbeyla,50.81,9.49,82.06,60,100,29.86,SO,1597504541
Severo-Kuril'sk,156.12,50.68,51.35,83,94,9.89,RU,1597504502
Yeppoon,150.73,-23.13,59.0,87,17,10.58,AU,1597504723
Yangi Marg`ilon,71.72,40.43,82.4,37,0,6.93,UZ,1597504723
Carnarvon,113.63,-24.87,66.2,100,75,25.28,AU,1597504504
Novoagansk,76.66,61.94,53.44,87,100,8.55,RU,1597504724
Clyde River,-68.59,70.47,44.6,81,75,5.82,CA,1597504490
Zhuangyuan,120.83,37.3,84.0,93,100,5.82,CN,1597504724
Ribeira Grande,-28.7,38.52,77.0,83,40,16.11,PT,1597504548
Busselton,115.33,-33.65,55.99,85,65,20.71,AU,1597504488
Batemans Bay,150.18,-35.72,55.0,82,99,3.0,AU,1597504725
Kruisfontein,24.73,-34.0,52.0,80,100,10.0,ZA,1597504592
Geraldton,114.6,-28.77,60.8,93,75,19.46,AU,1597504597
Bambous Virieux,57.76,-20.34,72.0,78,75,11.41,MU,1597504535
Hirara,125.28,24.8,84.43,77,0,12.08,JP,1597504726
Najrān,44.13,17.49,100.4,16,40,4.7,SA,1597504726
Lavrentiya,-171.0,65.58,50.25,70,0,6.24,RU,1597504525
Zalesovo,84.74,53.99,57.99,92,78,4.61,RU,1597504726
Trivandrum,76.92,8.48,82.4,88,20,4.7,IN,1597504708
Tuktoyaktuk,-133.04,69.45,46.4,87,90,10.29,CA,1597504321
Itoman,127.67,26.12,84.2,83,20,4.7,JP,1597504727
Miles City,-105.84,46.41,64.4,48,1,4.7,US,1597504727
Bluff,168.33,-46.6,43.0,93,96,3.22,NZ,1597504728
Port Lincoln,135.87,-34.73,51.24,82,4,5.91,AU,1597504573
Port Hardy,-127.42,50.7,57.2,100,40,2.24,CA,1597504596
Douglas,-96.17,41.3,75.2,47,1,4.7,US,1597504617
Borovskoy,64.15,53.8,64.35,68,97,7.43,KZ,1597504728
East London,27.91,-33.02,62.6,63,20,35.57,ZA,1597504493
Leh,77.58,34.17,72.28,21,1,5.75,IN,1597504729
The Valley,-63.06,18.22,89.6,74,40,12.75,AI,1597504729
Mumbwa,27.06,-14.98,83.61,14,4,5.39,ZM,1597504729
Cabo San Lucas,-109.91,22.89,82.99,78,5,5.48,MX,1597504522
Otradnoye,30.82,59.78,69.01,77,98,2.95,RU,1597504730
Saint-Michel-sur-Orge,2.31,48.63,84.0,45,40,3.36,FR,1597504730
Kaniama,24.18,-7.57,97.59,10,0,1.54,CD,1597504730
Khorramshahr,48.17,30.44,104.0,13,0,13.87,IR,1597504506
Lloydminster,-110.0,53.28,55.4,82,75,9.17,CA,1597504730
Tuatapere,167.68,-46.13,43.0,93,53,3.18,NZ,1597504731
Muisne,-80.03,0.6,77.0,83,75,9.17,EC,1597504731
Bredasdorp,20.04,-34.53,53.6,50,42,12.75,ZA,1597504511
Provideniya,-173.3,64.38,48.63,79,40,7.09,RU,1597504532
Holme,10.17,56.11,82.4,39,0,4.7,DK,1597504731
Torbay,-52.73,47.67,61.0,62,40,11.41,CA,1597504547
Nioki,17.68,-2.72,87.49,49,98,4.41,CD,1597504732
Itaituba,-55.98,-4.28,93.2,49,20,11.41,BR,1597504732
Ponta do Sol,-17.1,32.67,73.99,61,49,1.23,PT,1597504544
La Ronge,-105.28,55.1,55.4,87,40,12.75,CA,1597504610
Punta Arenas,-70.92,-53.15,37.4,89,75,25.28,CL,1597504311
Bonavista,-53.11,48.65,61.0,67,0,4.0,CA,1597504371
Santa Luzia,-43.85,-19.77,77.0,44,0,4.7,BR,1597504733
Bien Hoa,106.82,10.95,80.6,94,20,1.12,VN,1597504480
Tiksi,128.87,71.69,38.8,94,100,0.38,RU,1597504523
Flinders,150.86,-34.58,59.0,71,67,5.99,AU,1597504566
Hermanus,19.23,-34.42,48.99,83,26,3.0,ZA,1597504734
Shebunino,141.86,46.43,61.97,94,100,3.2,RU,1597504734
La Santisima Trinidad,-64.9,-14.83,86.0,66,75,11.41,BO,1597504636
Vraca,18.4,43.84,71.6,68,40,1.48,BA,1597504734
Cidreira,-50.21,-30.18,66.65,71,23,15.35,BR,1597504456
Margate,1.39,51.38,75.99,96,12,5.14,GB,1597504537
Mar del Plata,-57.56,-38.0,51.8,37,27,20.8,AR,1597504485
Butaritari,172.79,3.07,81.66,78,53,14.14,KI,1597504333
Hong Kong,114.16,22.29,84.0,74,28,5.99,HK,1597504283
Saldanha,17.94,-33.01,55.4,62,72,13.87,ZA,1597504611
Nikolskoye,30.79,59.7,69.8,68,75,8.95,RU,1597504501
Gaza,34.47,31.5,87.01,52,0,1.01,PS,1597504736
Etchojoa,-109.63,26.92,88.0,63,0,11.01,MX,1597504736
Vanimo,141.3,-2.67,78.12,79,86,1.99,PG,1597504736
Yellowknife,-114.35,62.46,51.01,76,75,18.34,CA,1597504508
Cherskiy,161.3,68.75,37.4,83,0,4.47,RU,1597504329
Barabai,115.38,-2.58,74.01,92,3,1.66,ID,1597504737
Chui,-53.46,-33.7,62.73,67,7,10.22,UY,1597504561
Imbituba,-48.67,-28.24,66.2,88,100,2.24,BR,1597504738
Bathsheba,-59.52,13.22,87.8,70,20,9.17,BB,1597504556
San Juan,-68.54,-31.54,57.4,32,0,3.13,AR,1597504738
Urucará,-57.76,-2.54,95.0,39,98,5.12,BR,1597504738
Vila Velha,-40.29,-20.33,82.4,58,40,17.22,BR,1597504528
Nabire,135.48,-3.37,75.36,86,100,5.28,ID,1597504464
Kiunga,141.29,-6.12,73.24,98,100,3.4,PG,1597504739
Grabouw,19.02,-34.15,53.01,62,75,8.05,ZA,1597504739
Raudeberg,5.14,61.99,66.99,77,56,12.75,NO,1597504604
Xai-Xai,33.64,-25.05,81.84,35,0,10.56,MZ,1597504740
Ugoofaaru,73.0,5.67,82.92,76,99,7.2,MV,1597504740
Praia,-23.51,14.92,86.0,70,20,14.99,CV,1597504740
North Platte,-100.77,41.12,72.0,72,1,3.36,US,1597504684
St. George's,-61.75,12.06,87.8,79,40,17.22,GD,1597504360
Husavik,-17.34,66.04,57.2,67,75,12.75,IS,1597504533
Adrar,-10.07,20.5,109.49,15,34,14.56,MR,1597504559
Aykhal,111.5,66.0,50.0,57,70,6.71,RU,1597504532
Owando,15.9,-0.48,80.29,81,100,2.15,CG,1597504741
New Norfolk,147.06,-42.78,52.0,92,100,2.37,AU,1597504491
Kichera,110.1,55.94,52.23,69,1,6.98,RU,1597504742
Road Town,-64.62,18.42,86.0,74,40,11.41,VG,1597504742
Saskylakh,114.08,71.92,44.37,67,2,7.27,RU,1597504336
Tobol'sk,68.27,58.2,55.72,69,98,5.97,RU,1597504743
Fortuna,-124.16,40.6,66.99,78,0,2.21,US,1597504561
Prabumulih,104.25,-3.45,76.66,85,65,3.18,ID,1597504743
Saint-Michel-des-Saints,-73.92,46.68,72.37,56,0,6.31,CA,1597504744
Jiaojiang,121.44,28.68,82.0,49,8,6.04,CN,1597504744
Salalah,54.09,17.02,77.0,100,90,5.82,OM,1597504744
Touros,-35.46,-5.2,82.4,65,75,16.11,BR,1597504510
Plastun,136.29,44.76,62.82,83,0,3.78,RU,1597504745
Tak Bai,102.05,6.26,82.4,78,20,3.36,TH,1597504745
Kysyl-Syr,122.76,63.9,42.17,75,12,6.22,RU,1597504745
Vardø,31.11,70.37,53.6,93,75,16.11,NO,1597504745
Basco,121.97,20.45,84.2,80,99,16.08,PH,1597504746
Ojinaga,-104.42,29.57,87.8,23,1,5.82,MX,1597504746
Lata,-8.33,40.16,82.0,43,3,12.44,PT,1597504746
San Vicente,-54.13,-26.62,65.07,85,98,0.51,AR,1597504747
Tunoshna,40.13,57.55,62.6,72,81,5.06,RU,1597504747
Dunedin,170.5,-45.87,45.0,69,89,1.99,NZ,1597504747
Anshan,122.99,41.12,71.96,81,100,3.31,CN,1597504747
Bose,8.01,45.46,87.01,59,9,1.99,IT,1597504747
Arraial do Cabo,-42.03,-22.97,86.0,48,0,10.29,BR,1597504478
Thompson,-97.86,55.74,59.0,77,40,9.17,CA,1597504503
Henties Bay,14.28,-22.12,62.01,75,10,5.99,NA,1597504748
Camacha,-16.33,33.08,75.2,60,20,12.75,PT,1597504748
Yatou,122.38,37.15,76.87,92,100,9.53,CN,1597504749
Atar,-13.05,20.52,109.26,17,21,13.2,MR,1597504749
Pisco,-76.22,-13.7,64.4,72,75,4.7,PE,1597504503
Tura,90.22,25.52,76.05,94,100,6.8,IN,1597504589
Mahébourg,57.7,-20.41,71.6,78,75,11.41,MU,1597504382
Northam,-4.22,51.03,69.01,99,100,1.01,GB,1597504750
Yarmouth,-70.23,41.71,75.0,73,90,13.87,US,1597504750
Samaipata,-63.87,-18.15,67.01,61,66,8.12,BO,1597504750
Roebourne,117.13,-20.78,68.18,62,2,8.08,AU,1597504750
Guarujá,-46.26,-23.99,73.0,83,75,4.7,BR,1597504751
Saint Anthony,-93.22,45.02,68.0,68,1,3.36,US,1597504751
Iskateley,53.15,67.68,59.47,57,96,9.75,RU,1597504751
Pattensen,9.76,52.26,82.0,65,20,3.36,DE,1597504751
Emba,58.14,48.83,73.24,35,51,9.19,KZ,1597504751
Sundargarh,84.03,22.12,78.42,93,100,10.27,IN,1597504752
Bilma,12.92,18.69,105.62,12,2,12.73,NE,1597504341
Kampene,26.67,-3.6,89.08,37,68,3.56,CD,1597504752
Patnos,42.86,39.23,76.14,34,17,12.64,TR,1597504752
Sakakah,40.21,29.97,100.4,14,0,17.22,SA,1597504571
Sungai Penuh,101.38,-2.08,66.9,95,76,0.72,ID,1597504753
Gijang,129.21,35.24,80.6,83,100,4.7,KR,1597504753
Tasiilaq,-37.64,65.61,41.0,75,75,13.87,GL,1597504336
Marawi,124.29,8.0,79.0,87,74,4.0,PH,1597504753
Contamana,-75.02,-7.33,86.23,57,97,2.19,PE,1597504753
Barrow,-156.79,71.29,41.0,93,90,8.05,US,1597504531
Mitú,-70.17,1.2,81.64,86,100,1.79,CO,1597504563
Abay,72.85,49.63,60.8,72,0,8.95,KZ,1597504754
Ancud,-73.82,-41.87,45.0,86,76,8.05,CL,1597504386
Rosetta,30.42,31.4,87.8,62,40,12.75,EG,1597504755
Port Blair,92.75,11.67,82.78,81,100,15.68,IN,1597504262
Blyth,-1.51,55.13,61.0,82,75,5.82,GB,1597504519
Vallenar,-70.76,-28.57,66.2,29,0,4.27,CL,1597504755
Mossamedes,12.15,-15.2,69.8,68,62,13.87,AO,1597504755
Bethel,-73.41,41.37,78.8,54,1,9.17,US,1597504346
Podgornoye,39.15,51.73,68.0,32,93,11.18,RU,1597504756
Cayenne,-52.33,4.93,86.0,70,73,5.82,GF,1597504549
Lüderitz,15.16,-26.65,62.73,56,0,21.9,NA,1597504572
Borogontsy,131.17,62.67,44.1,72,0,2.77,RU,1597504756
Qaqortoq,-46.03,60.72,50.0,71,75,8.05,GL,1597504566
Port Keats,129.55,-14.25,72.84,85,0,1.52,AU,1597504757
Ternate,127.4,0.8,79.93,81,85,5.88,ID,1597504757
George Town,100.34,5.41,86.0,83,20,1.34,MY,1597504492
San Patricio,-104.7,19.22,84.31,64,8,1.83,MX,1597504525
Departamento de Maldonado,-54.92,-34.67,53.6,62,20,12.75,UY,1597504605
Kajaani,27.73,64.23,68.0,64,100,13.87,FI,1597504758
Makakilo City,-158.09,21.35,78.8,88,1,3.36,US,1597504526
Egvekinot,-179.17,66.32,49.08,78,100,2.59,RU,1597504543
Kamwenge,30.45,0.19,80.02,51,100,2.24,UG,1597504758
Mananjary,48.33,-21.22,68.43,73,27,8.68,MG,1597504758
Ocós,-92.19,14.51,86.0,74,75,3.36,GT,1597504759
Bolshoye Nagatkino,47.97,54.52,57.2,93,90,20.13,RU,1597504759
Klaksvík,-6.59,62.23,53.6,100,77,6.93,FO,1597504547
Baley,116.63,51.6,53.78,95,12,2.71,RU,1597504759
São Filipe,-24.5,14.9,79.7,83,26,6.31,CV,1597504502
Lexington,-84.48,37.99,75.0,94,90,10.29,US,1597504760
Mbandaka,18.26,0.05,83.64,60,72,2.19,CD,1597504760
Kalino,57.61,58.25,51.62,87,98,5.79,RU,1597504761
Codrington,141.97,-38.27,46.89,92,5,7.11,AU,1597504491
Ekhabi,142.97,53.51,53.38,90,100,17.58,RU,1597504761
Verkhoyansk,133.38,67.54,38.21,76,99,4.36,RU,1597504761
Saint George,-113.58,37.1,86.0,20,1,4.7,US,1597504566
Batagay-Alyta,130.41,67.8,35.8,93,100,1.97,RU,1597504762
Avarua,-159.78,-21.21,73.4,94,3,6.93,CK,1597504327
Siniscola,9.69,40.57,89.6,52,0,9.17,IT,1597504762
Shimoda,138.95,34.67,75.99,86,0,4.14,JP,1597504762
Pokrovskoye,38.9,47.42,73.99,28,1,11.01,RU,1597504763
Natal,-35.21,-5.79,84.2,62,40,20.8,BR,1597504508
Itarema,-39.92,-2.92,86.99,54,89,20.8,BR,1597504522
Upernavik,-56.15,72.79,40.96,65,39,6.78,GL,1597504536
Iqaluit,-68.51,63.75,48.0,93,90,4.7,CA,1597504337
Kupang,123.58,-10.17,73.83,80,2,8.01,ID,1597504764
Shingū,135.98,33.73,81.57,71,0,6.15,JP,1597504764
Dingle,122.67,11.0,77.47,89,100,1.25,PH,1597504764
Udachny,112.4,66.42,50.0,57,77,6.71,RU,1597504764
Paita,-81.11,-5.09,68.0,72,88,21.92,PE,1597504765
Alta Floresta,-56.09,-9.88,99.59,19,0,6.31,BR,1597504765
Korla,86.15,41.76,80.01,74,0,1.99,CN,1597504581
Tchibanga,11.03,-2.85,79.54,65,96,7.31,GA,1597504765
Ilulissat,-51.1,69.22,37.4,47,40,5.82,GL,1597504406
Oparino,48.28,59.85,54.39,83,89,0.69,RU,1597504766
Alugan,125.48,12.22,78.26,87,91,3.96,PH,1597504496
Ruteng,120.47,-8.61,61.86,100,35,2.06,ID,1597504509
Saint-Philippe,55.77,-21.36,69.8,64,4,9.17,RE,1597504525
Muzhi,64.67,65.37,54.54,63,36,5.99,RU,1597504766
Wenling,121.36,28.37,84.0,49,6,9.22,CN,1597504766
Portland,-122.68,45.52,68.0,59,1,3.36,US,1597504088
Auki,160.7,-8.77,77.36,81,50,1.57,SB,1597504564
Santa Cruz de la Sierra,-63.17,-17.8,64.4,100,75,11.41,BO,1597504767
Mayma,85.91,52.02,58.17,85,100,3.18,RU,1597504767
Khatanga,102.5,71.97,55.62,56,0,9.37,RU,1597504545
Luba,8.55,3.46,80.6,88,75,6.93,GQ,1597504684
Mitsamiouli,43.28,-11.38,78.8,74,75,12.75,KM,1597504554
Bambanglipuro,110.28,-7.95,76.06,91,64,5.73,ID,1597504589
Lanquín,-89.97,15.57,76.78,77,99,1.9,GT,1597504768
Mlowo,32.98,-9.0,75.38,34,71,8.81,TZ,1597504768
Constantine,6.61,36.37,100.4,15,40,10.29,DZ,1597504769
Kudahuvadhoo,72.89,2.67,83.89,66,100,4.25,MV,1597504587
Sirte,16.59,31.21,86.58,49,0,10.87,LY,1597504769
Nanchang,115.88,28.68,85.39,68,0,2.44,CN,1597504769
Châteauroux,1.7,46.82,82.4,37,99,8.05,FR,1597504473
Tateyama,139.87,34.98,84.0,89,0,3.0,JP,1597504770
Slave Lake,-114.77,55.28,57.2,71,75,6.93,CA,1597504557
Kahului,-156.47,20.89,75.0,78,1,3.36,US,1597504495
Keti Bandar,67.45,24.14,85.21,80,100,10.63,PK,1597504770
Lagunas,-75.68,-5.23,81.05,74,99,2.46,PE,1597504771
Yerbogachën,108.01,61.28,44.1,72,5,6.15,RU,1597504771
Alofi,-169.92,-19.06,69.8,77,21,6.93,NU,1597504495
Pemangkat,108.97,1.17,80.38,81,73,5.77,ID,1597504771
Praia da Vitória,-27.07,38.73,77.0,69,20,9.95,PT,1597504537
Yanam,82.22,16.73,77.0,94,90,11.41,IN,1597504772
Stilfontein,26.77,-26.84,75.2,18,100,16.64,ZA,1597504772
Great Falls,-111.3,47.5,66.2,29,1,12.75,US,1597504772
Port Augusta,137.77,-32.5,46.99,100,1,5.82,AU,1597504555
Fort Nelson,-122.7,58.81,48.2,100,75,3.36,CA,1597504327
Cabedelo,-34.83,-6.98,82.4,65,75,12.75,BR,1597504570
Gazli,63.45,40.13,91.18,13,11,6.78,UZ,1597504773
Port-Gentil,8.78,-0.72,80.6,74,75,16.93,GA,1597504564
Eureka,-124.16,40.8,66.0,15,0,1.63,US,1597504316
Vanderhoof,-124.02,54.02,59.16,82,100,4.52,CA,1597504774
Çanakkale Province,26.83,40.08,89.6,31,0,13.87,TR,1597504774
Inta,60.17,66.03,56.23,69,98,0.76,RU,1597504551
Casselman,-75.08,45.32,75.0,70,0,4.0,CA,1597504774
Delcevo,22.77,41.97,84.22,40,7,6.71,MK,1597504774
Evensk,159.23,61.95,52.79,78,100,1.23,RU,1597504774
Linjiang,126.91,41.81,67.32,87,100,2.3,CN,1597504775
Mehamn,27.85,71.04,51.8,69,87,11.01,NO,1597504510
Padang,100.35,-0.95,79.88,76,30,3.06,ID,1597504775
Yumen,97.2,40.28,70.95,30,60,9.66,CN,1597504540
Puerto Baquerizo Moreno,-89.6,-0.9,68.0,94,90,9.17,EC,1597504609
Santa Vitória do Palmar,-53.37,-33.52,62.67,70,12,10.31,BR,1597504776
West Wendover,-114.07,40.74,78.8,21,1,2.98,US,1597504776
Fare,-151.02,-16.7,78.69,76,27,14.79,PF,1597504567
Benguela,13.41,-12.58,71.6,83,3,9.17,AO,1597504776
Māler Kotla,75.88,30.52,86.54,65,0,5.19,IN,1597504776
Tawang Town,91.87,27.58,59.99,81,100,2.91,IN,1597504777
Vila,-8.16,42.03,69.01,59,30,8.99,PT,1597504777
Champerico,-91.92,14.3,84.2,74,40,1.43,GT,1597504536
Tual,132.75,-5.67,79.48,83,35,16.24,ID,1597504777
Beringovskiy,179.32,63.05,51.19,85,2,10.65,RU,1597504534
Barra do Corda,-45.25,-5.5,96.67,27,99,8.37,BR,1597504778
Inhambane,35.38,-23.86,75.0,73,0,18.34,MZ,1597504600
Manakara,48.02,-22.13,68.59,77,0,9.78,MG,1597504778
Varkaus,27.87,62.32,72.0,49,100,6.93,FI,1597504778
Nāndgaon,74.65,20.32,75.61,85,100,17.56,IN,1597504779
Lorengau,147.27,-2.02,80.67,79,100,7.05,PG,1597504535
Muroto-misakicho,134.15,33.28,84.51,77,0,5.53,JP,1597504779
Palu,119.87,-0.89,75.7,81,52,2.19,ID,1597504779
Manaquiri,-60.35,-3.32,93.2,46,20,6.93,BR,1597504780
Toora-Khem,96.11,52.47,60.76,62,92,2.62,RU,1597504780
Valdivia,-73.25,-39.81,42.8,93,40,2.24,CL,1597504780
Pamanukan,107.81,-6.28,78.31,83,2,5.26,ID,1597504780
Sinnamary,-52.95,5.38,86.45,60,25,7.49,GF,1597504555
Westport,-73.36,41.14,82.4,45,1,11.41,US,1597504310
Guadalupe y Calvo,-106.97,26.1,65.79,60,0,4.56,MX,1597504781
Morondava,44.28,-20.28,74.62,67,2,9.62,MG,1597504781
Young,-57.63,-32.68,59.0,38,0,8.99,UY,1597504781
Ketchikan,-131.65,55.34,57.2,100,90,23.04,US,1597504781
Pevek,170.31,69.7,38.01,86,51,5.68,RU,1597504512
Hobyo,48.53,5.35,76.35,77,23,26.89,SO,1597504594
Nanortalik,-45.24,60.14,44.1,79,7,8.28,GL,1597504499
Petropavlovsk-Kamchatskiy,158.65,53.05,53.6,100,40,2.24,RU,1597504565
Avera,-82.53,33.19,80.01,61,90,6.93,US,1597504530
Srednekolymsk,153.68,67.45,43.32,68,93,7.16,RU,1597504494
Santiago del Estero,-64.26,-27.8,63.37,29,0,5.32,AR,1597504576
Tharād,71.63,24.4,81.9,88,100,8.79,IN,1597504783
Coyhaique,-72.07,-45.58,37.4,69,75,9.17,CL,1597504538
Faanui,-151.75,-16.48,78.82,73,50,15.05,PF,1597504527
Safi,-9.24,32.3,75.07,64,0,24.18,MA,1597504784
Katsuura,140.3,35.13,84.0,89,0,3.0,JP,1597504493
Moerai,-151.33,-22.43,72.59,83,100,14.58,PF,1597504587
Itaunja,80.92,27.08,84.2,89,75,5.82,IN,1597504785
Sijunjung,100.95,-0.69,74.32,89,51,1.61,ID,1597504785
Homer,-151.55,59.64,53.01,95,0,4.0,US,1597504785
Ayr,-4.63,55.46,73.4,64,20,9.17,GB,1597504786
Vorsma,43.27,55.99,61.0,59,75,6.71,RU,1597504786
Haines Junction,-137.51,60.75,48.78,85,100,1.03,CA,1597504532
Puerto Escondido,-97.07,15.85,82.4,74,5,8.05,MX,1597504786
Oktyabr'skiy,53.47,54.48,61.05,81,97,2.93,RU,1597504787
Airai,125.41,-8.93,58.12,78,1,2.77,TL,1597504530
Wattegama,81.48,6.8,82.4,78,20,6.93,LK,1597504787
Paoua,16.44,7.24,81.16,84,97,4.56,CF,1597504787
Kavieng,150.8,-2.57,82.08,75,99,4.65,PG,1597504508
Veere,3.67,51.55,78.01,83,36,5.82,NL,1597504788
São João da Barra,-41.05,-21.64,84.2,45,0,13.87,BR,1597504526
Half Moon Bay,-122.43,37.46,75.0,72,1,1.23,US,1597504500
Vila Franca do Campo,-25.43,37.72,77.0,78,20,14.99,PT,1597504542
Sabzawār,57.68,36.21,93.6,14,0,18.14,IR,1597504789
Pochutla,-96.47,15.74,87.8,55,5,1.14,MX,1597504789
Dongsheng,109.98,39.82,66.18,63,0,4.59,CN,1597504789
Nagua,-69.85,19.38,80.6,94,40,4.7,DO,1597504777
Longyearbyen,15.64,78.22,42.8,81,75,3.36,SJ,1597504509
Whitehorse,-135.05,60.72,48.2,87,90,3.36,CA,1597504790
Astoria,-123.83,46.19,64.0,93,1,4.79,US,1597504790
Baykit,96.37,61.67,53.76,60,0,6.4,RU,1597504555
Jinchang,102.17,38.5,68.76,55,100,10.51,CN,1597504790
Kenai,-151.26,60.55,63.0,54,1,8.05,US,1597504733
Lahat,103.53,-3.8,73.78,92,57,2.37,ID,1597504791
Brighton,-0.14,50.83,73.0,81,59,1.99,GB,1597504791
Nome,-165.41,64.5,39.2,93,1,4.23,US,1597504340
Kurovskoye,38.91,55.58,66.2,52,40,6.71,RU,1597504792
Hillsborough,-122.38,37.57,73.4,56,20,4.7,US,1597504792
Palmer,-72.33,42.16,73.99,68,75,10.29,US,1597504606
Pinega,43.39,64.7,59.52,73,100,3.91,RU,1597504793
Zyryanka,150.85,65.75,46.15,72,100,20.31,RU,1597504793
Pervomayskoye,46.71,43.92,79.27,29,28,4.21,RU,1597504599
Hyderabad,78.47,17.38,72.0,100,90,5.82,IN,1597504754
Ambilobe,49.05,-13.2,76.39,68,91,1.99,MG,1597504611
Ninotsminda,43.59,41.26,69.8,35,11,11.41,GE,1597504794
Miragoâne,-73.09,18.44,84.16,69,97,1.86,HT,1597504794
Bayan,127.4,46.08,63.91,91,0,3.58,CN,1597504794
Emerald,148.17,-23.53,59.0,51,0,6.93,AU,1597504794
Sur,59.53,22.57,89.33,56,25,14.63,OM,1597504795
Bandar,99.75,2.05,75.52,89,82,2.62,ID,1597504795
Hamilton,-84.53,39.18,79.0,65,75,3.36,US,1597504420
Alytus,24.05,54.4,80.6,36,52,6.93,LT,1597504795
Māngrol,70.12,21.12,81.97,83,90,19.77,IN,1597504561
Broken Hill,141.43,-31.95,48.2,81,6,8.05,AU,1597504565
Mount Isa,139.5,-20.73,60.8,35,15,1.12,AU,1597504514
Port Moresby,147.18,-9.44,75.2,83,40,17.22,PG,1597504510
Viedma,-63.0,-40.81,46.99,48,73,11.01,AR,1597504796
Bariloche,-71.31,-41.15,35.6,69,75,21.92,AR,1597504595
Leningradskiy,178.42,69.38,41.54,86,94,0.87,RU,1597504498
Polis,32.43,35.04,91.0,66,0,13.87,CY,1597504797
Malindi,40.12,-3.22,78.8,74,20,17.22,KE,1597504797
Mareeba,145.43,-17.0,69.8,83,64,6.93,AU,1597504797
Dryden,-92.75,49.78,62.6,77,40,17.22,CA,1597504797
Chapais,-74.85,49.78,71.6,60,1,9.17,CA,1597504798
Samarinda,117.15,-0.5,74.59,95,10,1.01,ID,1597504318
Ben Gardane,11.22,33.14,99.66,21,0,14.32,TN,1597504798
Cachoeira do Sul,-52.89,-30.04,63.63,82,88,7.11,BR,1597504798
Znamenskoye,73.83,57.13,52.45,89,57,3.31,RU,1597504798
Ngunguru,174.5,-35.62,45.0,3,10,4.0,NZ,1597504799
Prainha,-53.48,-1.8,88.57,58,90,4.32,BR,1597504586
College Place,-118.39,46.05,70.0,31,1,8.05,US,1597504562
Guarapari,-40.5,-20.67,82.0,63,0,5.01,BR,1597504799
Oneida,-75.47,43.2,78.8,54,1,8.05,US,1597504799
Stornoway,-6.39,58.21,62.01,93,0,9.17,GB,1597504591
Luka nad Jihlavou,15.7,49.37,73.99,89,94,4.9,CZ,1597504800
Boma,-2.17,7.08,74.84,90,100,2.8,GH,1597504800
Jvari,42.05,42.72,67.73,75,78,3.58,GE,1597504683
Zapolyarnyy,30.81,69.42,60.8,72,12,17.22,RU,1597504800
Laas,10.7,46.62,79.0,52,40,5.82,IT,1597504550
Pontianak,109.33,-0.03,76.06,87,100,3.78,ID,1597504801
Ginir,40.7,7.13,67.03,76,91,6.38,ET,1597504801
Poum,164.02,-20.23,72.09,83,70,14.16,NC,1597504528
Moose Factory,-80.61,51.26,77.0,61,1,9.17,CA,1597504499
Carballo,-8.69,43.21,73.99,60,40,8.05,ES,1597504802
Rongcheng,117.85,30.63,82.4,79,6,2.73,CN,1597504802
Lipari,14.95,38.47,88.0,63,0,3.0,IT,1597504802
Seoul,126.98,37.57,80.6,100,75,5.21,KR,1597504500
Fairlie,-4.86,55.76,72.0,70,72,4.0,GB,1597504803
Houston,-95.36,29.76,87.01,70,75,4.7,US,1597504025
Valparaíso,-71.63,-33.04,57.2,62,0,10.29,CL,1597504488
Caravelas,-39.25,-17.71,77.83,77,67,9.82,BR,1597504424
Sri Aman,111.46,1.24,78.8,94,100,1.19,MY,1597504804
Kavajë,19.56,41.19,86.0,62,1,9.17,AL,1597504804
Chu,73.76,43.6,78.01,62,0,1.99,KZ,1597504804
Norman Wells,-126.83,65.28,53.6,93,75,4.7,CA,1597504804
Mastic Beach,-72.85,40.77,78.8,54,1,9.17,US,1597504804
Nemuro,145.57,43.32,60.3,98,72,3.09,JP,1597504805
Kamennomostskoye,43.05,43.74,78.01,38,75,4.47,RU,1597504805
Faya,42.45,18.39,78.8,60,75,11.41,SA,1597504600
Lazarev,141.51,52.23,57.85,91,100,6.17,RU,1597504805
Gorontalo,123.06,0.54,75.25,84,68,2.17,ID,1597504805
Chokurdakh,147.92,70.63,34.27,94,71,3.27,RU,1597504314
Villa Bruzual,-69.12,9.33,83.23,84,51,1.36,VE,1597504806
Ucluelet,-125.55,48.93,60.8,100,5,1.95,CA,1597504670
Geilo,8.21,60.53,75.99,45,0,5.32,NO,1597504806
Camacupa,17.48,-12.02,86.81,11,80,4.47,AO,1597504806
Mildura,142.15,-34.2,50.0,93,90,4.7,AU,1597504807
Marystown,-55.15,47.17,61.41,55,0,10.2,CA,1597504807
Cobija,-68.77,-11.03,95.22,36,14,4.88,BO,1597504807
Hervey Bay,152.85,-25.3,61.0,84,13,8.01,AU,1597504807
Newport,-3.0,51.59,64.0,93,100,7.87,GB,1597504566
Romny,33.47,50.75,67.39,53,52,5.91,UA,1597504808
Manglisi,44.38,41.7,77.0,38,17,27.51,GE,1597504808
Todos Santos,-110.22,23.45,84.99,67,1,5.01,MX,1597504780
Suez,32.53,29.97,98.98,17,0,18.95,EG,1597504808
Baijiantan,85.18,45.63,82.13,22,7,15.7,CN,1597504809
Luganville,167.17,-15.53,76.46,85,98,14.47,VU,1597504809
Yar-Sale,70.83,66.83,51.3,70,100,4.94,RU,1597504809
Asău,26.4,46.43,64.0,91,100,4.45,RO,1597504570
Ljungby,13.94,56.83,86.0,42,0,3.36,SE,1597504810
Mount Gambier,140.77,-37.83,46.4,93,40,6.93,AU,1597504497
Matagami,-77.63,49.75,71.6,56,1,10.56,CA,1597504810
Dillon,-79.37,34.42,82.99,92,62,1.01,US,1597504810
Aklavik,-135.01,68.22,48.2,100,90,4.7,CA,1597504577
Rocha,-54.33,-34.48,57.11,71,0,17.34,UY,1597504574
Okhotsk,143.3,59.38,56.61,87,99,5.37,RU,1597504591
Solnechnyy,136.63,50.72,56.53,95,100,2.51,RU,1597504811
Kyren,102.14,51.68,57.85,80,32,0.98,RU,1597504812
Karakol,78.39,42.49,60.8,44,0,3.98,KG,1597504812
Galway,-9.05,53.27,73.4,73,75,4.7,IE,1597504543
Kumbo,10.67,6.2,69.89,83,69,0.92,CM,1597504812
Eldorado,-54.28,-23.79,76.55,68,57,4.97,BR,1597504812
Havelock,-76.9,34.88,81.0,87,46,1.99,US,1597504479
Sørland,12.69,67.67,54.37,80,100,28.5,NO,1597504566
Micco,-80.5,27.88,89.01,76,66,5.32,US,1597504813
Kathmandu,85.32,27.72,71.6,100,75,2.24,NP,1597504585
Wajir,40.06,1.75,89.6,40,75,8.05,KE,1597504813
Tsiroanomandidy,46.03,-18.77,72.81,23,0,2.17,MG,1597504813
Kununurra,128.73,-15.77,71.6,62,22,2.1,AU,1597504507
Midland,-102.08,32.0,89.6,29,90,4.7,US,1597504814
Wajima,136.9,37.4,78.84,92,100,13.87,JP,1597504814
Mayo,-76.51,38.89,78.01,73,40,6.93,US,1597504539
Liwale,37.93,-9.77,83.82,23,29,5.53,TZ,1597504815
Ahipara,173.17,-35.17,48.29,86,2,5.28,NZ,1597504517
Oudtshoorn,22.2,-33.59,48.2,87,40,14.99,ZA,1597504815
Puerto Ayacucho,-67.62,5.66,84.2,74,40,1.81,VE,1597504815
Gniezno,17.58,52.53,82.0,44,52,6.93,PL,1597504816
Usevya,31.23,-7.1,89.64,20,76,3.78,TZ,1597504816
Ambovombe,46.08,-25.17,70.77,74,0,11.07,MG,1597504816
Oranjestad,-70.03,12.52,87.8,66,75,17.22,AW,1597504546
Krasnosel'kup,82.47,65.7,64.49,82,74,3.8,RU,1597504574
Manado,124.85,1.49,77.94,79,100,2.51,ID,1597504800
Bulembu,31.13,-25.97,77.0,18,0,10.29,SZ,1597504817
Khani,42.96,41.96,77.0,61,40,12.75,GE,1597504818
Agadez,10.25,19.75,103.77,15,31,8.34,NE,1597504818
Ribeira Brava,-17.07,32.65,73.99,79,49,3.0,PT,1597504605
Aracoiaba,-38.81,-4.37,84.92,52,100,10.22,BR,1597504818
Bereket,55.52,39.24,90.14,34,86,16.53,TM,1597504514
Cilegon,106.05,-6.02,80.6,78,40,3.36,ID,1597504819
Barão de Melgaço,-55.97,-16.19,98.6,16,0,10.29,BR,1597504819
Oranjemund,16.43,-28.55,58.08,76,63,12.88,NA,1597504819
Kiryat Gat,34.76,31.61,88.0,53,0,5.01,IL,1597504321
Harindānga,88.32,22.04,84.2,94,40,6.93,IN,1597504820
Turukhansk,87.98,65.82,61.95,58,0,14.09,RU,1597504582
Kinablangan,126.55,7.69,80.35,80,86,6.33,PH,1597504820
Petra,35.48,30.32,82.36,29,0,23.11,JO,1597504821
Sitka,-135.33,57.05,55.4,93,90,1.25,US,1597504351
Cam Ranh,109.16,11.92,86.0,70,20,1.12,VN,1597504621
Tautira,-149.15,-17.73,71.6,83,20,3.36,PF,1597504822
North Bend,-124.22,43.41,70.0,82,1,4.41,US,1597504822
Gizo Government Station,156.84,-8.1,80.35,79,18,4.79,SB,1597504822
Ayan,138.17,56.45,57.33,94,100,15.48,RU,1597504492
Otavi,17.33,-19.65,83.46,12,0,10.6,NA,1597504823
Pangnirtung,-65.71,66.15,50.0,66,40,6.93,CA,1597504497
Luanda,13.23,-8.84,77.0,73,45,8.05,AO,1597504765
Narsaq,-46.05,60.92,50.0,71,75,8.05,GL,1597504548
Pierre,-100.35,44.37,73.99,52,1,5.82,US,1597504824
Comodoro Rivadavia,-67.5,-45.87,42.8,45,0,19.46,AR,1597504824
Kavaratti,72.64,10.57,82.54,77,93,15.68,IN,1597504463
Jiwani,61.74,25.05,82.9,81,68,10.2,PK,1597504824
Luan,6.98,46.36,82.4,48,20,19.46,CH,1597504825
Isugod,118.12,9.34,80.49,74,31,2.53,PH,1597504825
Chino Valley,-112.45,34.76,82.99,27,1,1.54,US,1597504826
Maţāy,30.78,28.42,101.71,14,1,14.94,EG,1597504553
Sept-Îles,-66.38,50.2,64.4,63,40,6.93,CA,1597504594
Bonthe,-12.51,7.53,74.82,96,100,6.29,SL,1597504826
Port Hedland,118.57,-20.32,60.8,87,61,8.05,AU,1597504827
Kodinsk,99.18,58.69,55.4,46,19,6.8,RU,1597504827
Betsiamites,-68.65,48.94,66.2,68,1,6.93,CA,1597504827
Evans,-82.13,33.53,84.99,83,75,6.93,US,1597504827
Pagsañgahan,122.54,13.22,81.82,78,92,4.43,PH,1597504828
Antofagasta,-70.4,-23.65,57.2,62,20,10.29,CL,1597504514
Raja,25.68,8.46,81.57,89,99,3.27,SS,1597504542
Elko,-115.5,41.0,70.0,20,13,4.0,US,1597504828
Saint-Pierre,55.48,-21.34,69.8,64,3,9.17,RE,1597504566
Souillac,57.52,-20.52,71.6,78,75,11.41,MU,1597504493
Vulcan,23.27,45.38,70.34,72,57,3.44,RO,1597504829
San Ignacio,-89.07,17.16,80.01,94,75,4.68,BZ,1597504829
Naryan-Mar,53.09,67.67,59.54,57,95,9.62,RU,1597504829
Loukhi,33.04,66.08,67.69,70,44,8.43,RU,1597504830
Cândido Mendes,-45.72,-1.45,90.0,52,88,9.22,BR,1597504830
Bairiki Village,172.98,1.33,80.6,83,40,4.7,KI,1597504830
Kasongo-Lunda,16.82,-6.47,99.37,18,1,1.61,CD,1597504830
Bryan,-96.37,30.67,89.01,58,1,8.05,US,1597504831
Duekoué,-7.35,6.75,71.42,95,100,2.62,CI,1597504831
Lālmohan,90.74,22.34,83.75,82,98,21.21,BD,1597504831
Jüterbog,13.08,51.98,84.2,37,40,5.82,DE,1597504832
College,-147.8,64.86,55.99,76,75,4.7,US,1597504315
Abu Dhabi,54.37,24.47,96.8,71,14,8.05,AE,1597504735
Tiarei,-149.33,-17.53,71.6,83,20,3.36,PF,1597504833
Formosa,-58.18,-26.18,62.6,72,75,10.29,AR,1597504736
Minsk,27.57,53.9,75.2,41,14,6.71,BY,1597504617
Homa Bay,34.46,-0.53,78.8,65,75,4.7,KE,1597504833
Bayanday,105.51,53.07,56.53,77,7,2.82,RU,1597504834
Rach Gia,105.08,10.02,82.4,100,20,2.24,VN,1597504582
Parrsboro,-64.33,45.4,68.0,63,46,3.0,CA,1597504835
Durango,-104.83,24.83,71.73,33,0,6.51,MX,1597504805
Suntar,117.63,62.14,41.77,89,0,4.61,RU,1597504835
Tres Arroyos,-60.28,-38.37,48.2,48,0,23.42,AR,1597504799
Massaguet,15.44,12.48,91.4,55,40,13.87,TD,1597504836
Olafsvik,-23.71,64.89,52.68,93,100,14.38,IS,1597504836
Forbes,148.02,-33.38,50.0,89,18,7.74,AU,1597504837
Jalu,21.55,29.03,100.9,17,0,16.17,LY,1597504837
Sechura,-80.82,-5.56,66.81,69,93,9.8,PE,1597504553
Esperance,121.9,-33.87,57.2,54,95,10.29,AU,1597504837
Parakai,174.43,-36.65,44.01,89,5,2.06,NZ,1597504838
Marsh Harbour,-77.06,26.54,83.82,64,26,1.9,BS,1597504838
Porto Franco,-47.4,-6.34,97.56,27,96,9.66,BR,1597504838
Naze,129.48,28.37,80.6,94,3,2.24,JP,1597504467
Pozo Colorado,-58.8,-23.49,66.06,78,100,7.9,PY,1597504839
General Roca,-67.58,-39.03,48.2,26,0,16.11,AR,1597504839
Takoradze,-1.76,4.88,79.39,76,95,15.03,GH,1597504512
Ust-Kuyga,135.6,70.02,33.82,92,100,2.8,RU,1597504520
Richards Bay,32.04,-28.78,87.67,15,0,10.25,ZA,1597504562
Eunice,-92.42,30.49,88.0,70,75,10.29,US,1597504840
Sayyan,44.32,15.17,68.95,52,100,7.56,YE,1597504560
Aksha,113.29,50.28,56.98,82,53,2.15,RU,1597504840
Grand-Santi,-54.38,4.25,89.82,49,33,4.7,GF,1597504841
Sola,167.55,-13.88,78.76,83,83,19.8,VU,1597504533
Katobu,122.53,-4.94,75.38,83,93,5.93,ID,1597504536
Włocławek,19.07,52.65,81.27,39,54,8.14,PL,1597504842
Pitimbu,-34.81,-7.47,82.4,65,75,12.75,BR,1597504842
Juruti,-56.09,-2.15,94.05,41,100,5.32,BR,1597504842
Deputatsky,139.9,69.3,30.51,98,100,8.16,RU,1597504843
Kanina,25.47,-10.73,84.11,14,52,5.28,CD,1597504843
Kyzyl-Suu,78.0,42.34,62.04,45,0,3.94,KG,1597504843
Hingatungan,125.19,10.58,81.32,77,2,3.96,PH,1597504844
Bay Roberts,-53.26,47.6,63.0,100,0,4.0,CA,1597504844
Sambava,50.17,-14.27,72.1,77,33,17.02,MG,1597504389
Coruripe,-36.18,-10.13,79.29,74,31,12.15,BR,1597504844
Berlevåg,29.09,70.86,51.55,75,91,3.11,NO,1597504527
Shakawe,21.85,-18.37,87.48,12,0,2.59,BW,1597504573
Meulaboh,96.13,4.14,80.73,79,99,1.52,ID,1597504845
Ust'-Karsk,118.81,52.7,55.78,84,80,3.83,RU,1597504845
